{"type":"FeatureCollection","features":[{"type":"Feature","properties":{"name":"Apartment on Monroe St.","code":"007"},"geometry":{"type":"Point","coordinates":[-89.41805452108383,43.06448278866549]}},{"type":"Feature","properties":{"name":"Showerman House, Kronshage Hall","code":"006"},"geometry":{"type":"Point","coordinates":[-89.41404461860655,43.07813564604729]}},{"type":"Feature","properties":{"name":"House on 1st Ave","code":"003"},"geometry":{"type":"Point","coordinates":[-94.20764565467834,45.61984949643812]}},{"type":"Feature","properties":{"name":"Northern Lakes Canoe Base","code":"005"},"geometry":{"type":"Point","coordinates":[-91.53701305389404,47.97564506807911]}},{"type":"Feature","properties":{"name":"Alnwick, England","code":"004"},"geometry":{"type":"Point","coordinates":[-1.7074352502822876,55.41570625877184]}},{"type":"Feature","properties":{"name":"The Duke's Middle School","code":"013"},"geometry":{"type":"Point","coordinates":[-1.7058393359184265,55.40922457086911]}},{"type":"Feature","properties":{"name":"Sartell Elementary School","code":"010"},"geometry":{"type":"Point","coordinates":[-94.20750617980957,45.62225820212263]}},{"type":"Feature","properties":{"name":"Sartell Middle School","code":"011"},"geometry":{"type":"Point","coordinates":[-94.21126127243042,45.62784435015906]}},{"type":"Feature","properties":{"name":"Pine Meadow Elementary","code":"012"},"geometry":{"type":"Point","coordinates":[-94.22560572624207,45.6276192642922]}},{"type":"Feature","properties":{"name":"Sartell High School","code":"014"},"geometry":{"type":"Point","coordinates":[-94.21899676322937,45.62863964631652]}},{"type":"Feature","properties":{"name":"Duluth, MN","code":"001"},"geometry":{"type":"Point","coordinates":[-92.11761474609374,46.77326045738876]}},{"type":"Feature","properties":{"name":"Ames, IA","code":"002"},"geometry":{"type":"Point","coordinates":[-93.62823486328125,42.01869237684385]}},{"type":"Feature","properties":{"name":"House on Breese Terrace","code":"008"},"geometry":{"type":"Point","coordinates":[-89.41416800022125,43.07229123167521]}},{"type":"Feature","properties":{"name":"Apartment on University Ave.","code":"009"},"geometry":{"type":"Point","coordinates":[-89.42494243383406,43.07216975285215]}},{"type":"Feature","properties":{"name":"Science Hall","code":"015"},"geometry":{"type":"Point","coordinates":[-89.4010466337204,43.07589434082195]}},{"type":"Feature","properties":{"name":"Meiklejohn House","code":"016"},"geometry":{"type":"Point","coordinates":[-89.40600872039795,43.07203063971062]}},{"type":"Feature","properties":{"name":" Grandparents' House on Lydia Drive","code":"017"},"geometry":{"type":"Point","coordinates":[-93.1382703781128,45.03182223560679]}},{"type":"Feature","properties":{"name":"Rome","code":"022"},"geometry":{"type":"Point","coordinates":[12.496733665466309,41.89229462103982]}},{"type":"Feature","properties":{"name":"Innsbruck, Austria","code":"019"},"geometry":{"type":"Point","coordinates":[11.399002075195312,47.266183925231]}},{"type":"Feature","properties":{"name":"Copenhagen, Denmark","code":"020"},"geometry":{"type":"Point","coordinates":[12.588272094726562,55.68455275165637]}},{"type":"Feature","properties":{"name":"Granby, CO","code":"021"},"geometry":{"type":"Point","coordinates":[-105.93626976013184,40.08864426295526]}},{"type":"Feature","properties":{"name":"Grandparents' House on the Lake","code":"018"},"geometry":{"type":"Point","coordinates":[-95.54597407579422,46.46495907900564]}},{"type":"Feature","properties":{"name":"Ely, MN","code":"023"},"geometry":{"type":"Point","coordinates":[-91.856689453125,47.90345483298757]}},{"type":"Feature","properties":{"name":"Louisa Falls","code":"024"},"geometry":{"type":"Point","coordinates":[-91.36436462402344,48.13080926387587]}},{"type":"Feature","properties":{"name":"Quinn Lake","code":"025"},"geometry":{"type":"Point","coordinates":[-91.23630523681639,48.44355056533406]}},{"type":"Feature","properties":{"name":"Superior Ice Caves","code":"026"},"geometry":{"type":"Point","coordinates":[-91.03219985961914,46.904307296289375]}},{"type":"Feature","properties":{"name":"Carlsbad Caverns","code":"027"},"geometry":{"type":"Point","coordinates":[-104.44416761398315,32.17539453182916]}},{"type":"Feature","properties":{"name":"Port of Halifax","code":"028"},"geometry":{"type":"Point","coordinates":[-63.568739891052246,44.63177212285837]}},{"type":"Feature","properties":{"name":"Cadiz, Spain","code":"029"},"geometry":{"type":"Point","coordinates":[-6.282634735107421,36.53619159520271]}},{"type":"Feature","properties":{"name":"Casablanca, Morocco","code":"030"},"geometry":{"type":"Point","coordinates":[-7.6004791259765625,33.608900856100206]}},{"type":"Feature","properties":{"name":"Takoradi, Ghana","code":"031"},"geometry":{"type":"Point","coordinates":[-1.7505168914794922,4.888895041008363]}},{"type":"Feature","properties":{"name":"Zero Latitude, Zero Longitude","code":"032"},"geometry":{"type":"Point","coordinates":[0,0]}},{"type":"Feature","properties":{"name":"Cape Town","code":"033"},"geometry":{"type":"Point","coordinates":[18.389021158218384,-33.93506424409194]}},{"type":"Feature","properties":{"name":"Port Louis, Mauritius","code":"035"},"geometry":{"type":"Point","coordinates":[57.495574951171875,-20.15523073606591]}},{"type":"Feature","properties":{"name":"Chennai, India","code":"036"},"geometry":{"type":"Point","coordinates":[80.2851676940918,13.085246885072676]}},{"type":"Feature","properties":{"name":"Singapore","code":"037"},"geometry":{"type":"Point","coordinates":[103.81256103515625,1.3614898951040653]}},{"type":"Feature","properties":{"name":"Ho Chi Minh City, Vietnam","code":"038"},"geometry":{"type":"Point","coordinates":[106.666259765625,10.78609369153588]}},{"type":"Feature","properties":{"name":"Hong Kong","code":"039"},"geometry":{"type":"Point","coordinates":[114.18125152587889,22.310061087979612]}},{"type":"Feature","properties":{"name":"Shanghai","code":"040"},"geometry":{"type":"Point","coordinates":[121.49436950683594,31.240985378021307]}},{"type":"Feature","properties":{"name":"Kyoto","code":"041"},"geometry":{"type":"Point","coordinates":[135.780029296875,35.016500995886005]}},{"type":"Feature","properties":{"name":"Tokyo","code":"042"},"geometry":{"type":"Point","coordinates":[139.73236083984375,35.67514743608467]}},{"type":"Feature","properties":{"name":"Ten Thousand Islands, Everglades National Park","code":"046"},"geometry":{"type":"Point","coordinates":[-81.35942459106445,25.81410893847994]}},{"type":"Feature","properties":{"name":"Oahu, HI","code":"043"},"geometry":{"type":"Point","coordinates":[-157.94494628906247,21.437730075416685]}},{"type":"Feature","properties":{"name":"Big Island, HI","code":"044"},"geometry":{"type":"Point","coordinates":[-155.45104980468747,19.544260884841158]}},{"type":"Feature","properties":{"name":"San Diego","code":"045"},"geometry":{"type":"Point","coordinates":[-117.17348098754883,32.71393308442175]}},{"type":"Feature","properties":{"name":"Crater Lake","code":"047"},"geometry":{"type":"Point","coordinates":[-122.14616775512695,42.911429034931146]}},{"type":"Feature","properties":{"name":"Dunsmuir, CA","code":"048"},"geometry":{"type":"Point","coordinates":[-122.27422714233397,41.209655278807034]}},{"type":"Feature","properties":{"name":"Ocoee River, TN","code":"049"},"geometry":{"type":"Point","coordinates":[-84.254150390625,35.18278813800229]}},{"type":"Feature","properties":{"name":"Chattooga River, GA/SC","code":"050"},"geometry":{"type":"Point","coordinates":[-82.880859375,34.732584206123626]}},{"type":"Feature","properties":{"name":"Uppsala, Sweden","code":"051"},"geometry":{"type":"Point","coordinates":[17.645416259765625,59.8658490689391]}}]}